{"executionTime": "2013-07-04 07:01:01 PM", "stationBeanList": [{"availableDocks": 17, "totalDocks": 19, "city": "", "altitude": "", "stAddress2": "", "longitude": -87.6277394859, "id": 5, "landMark": "30", "statusValue": "In Service", "testStation": false, "stAddress1": "State St & Harrison St", "stationName": "State St & Harrison St", "postalCode": "", "statusKey": 1, "availableBikes": 2, "latitude": 41.8739580629, "lastCommunicationTime": null, "location": "620 S. State St."}, {"availableDocks": 0, "totalDocks": 15, "city": "Chicago", "altitude": "", "stAddress2": "", "longitude": -87.65268082, "id": 13, "landMark": "66", "statusValue": "In Service", "testStation": false, "stAddress1": "Wilton Ave & Diversey Pkwy", "stationName": "Wilton Ave & Diversey Pkwy", "postalCode": "", "statusKey": 1, "availableBikes": 0, "latitude": 41.93250008, "lastCommunicationTime": null, "location": "2790 N.Wilton Ave"}, {"availableDocks": 13, "totalDocks": 15, "city": "Chicago", "altitude": "", "stAddress2": "", "longitude": -87.65140281, "id": 14, "landMark": "163", "statusValue": "In Service", "testStation": false, "stAddress1": "Morgan St & 18th St", "stationName": "Morgan St &18th St", "postalCode": "", "statusKey": 1, "availableBikes": 2, "latitude": 41.85807921, "lastCommunicationTime": null, "location": "962 W. 18th St"}, {"availableDocks": 10, "totalDocks": 15, "city": "Chicago", "altitude": "", "stAddress2": "", "longitude": -87.6564866473, "id": 15, "landMark": "164", "statusValue": "In Service", "testStation": false, "stAddress1": "Racine Ave & 18th St", "stationName": "Racine Ave & 18th St", "postalCode": "", "statusKey": 1, "availableBikes": 4, "latitude": 41.8581806068, "lastCommunicationTime": null, "location": "1722 S Racine Ave"}, {"availableDocks": 4, "totalDocks": 15, "city": "", "altitude": "", "stAddress2": "", "longitude": -87.66887, "id": 16, "landMark": "225", "statusValue": "In Service", "testStation": false, "stAddress1": "Marshfield Ave & North Ave", "stationName": "Marshfield Ave & North Ave", "postalCode": "", "statusKey": 1, "availableBikes": 10, "latitude": 41.91083, "lastCommunicationTime": null, "location": "1611 N Marshfield Ave"}, {"availableDocks": 7, "totalDocks": 15, "city": "", "altitude": "", "stAddress2": "", "longitude": -87.67273, "id": 17, "landMark": "246", "statusValue": "In Service", "testStation": false, "stAddress1": "Wood St & Division St", "stationName": "Wood St & Division St", "postalCode": "", "statusKey": 1, "availableBikes": 8, "latitude": 41.90332, "lastCommunicationTime": null, "location": "1802 W. Divison St"}, {"availableDocks": 13, "totalDocks": 15, "city": "Chicago", "altitude": "", "stAddress2": "", "longitude": -87.6617216772, "id": 19, "landMark": "139", "statusValue": "In Service", "testStation": false, "stAddress1": "Loomis St & Taylor St", "stationName": "Loomis St & Taylor St", "postalCode": "", "statusKey": 1, "availableBikes": 2, "latitude": 41.8691438562, "lastCommunicationTime": null, "location": "1010 S. Loomis St"}, {"availableDocks": 4, "totalDocks": 15, "city": "Chicago", "altitude": "", "stAddress2": "", "longitude": -87.65349723, "id": 20, "landMark": "154", "statusValue": "In Service", "testStation": false, "stAddress1": "Sheffield Ave & Kingsbury St", "stationName": "Sheffield Ave & Kingsbury St", "postalCode": "", "statusKey": 1, "availableBikes": 11, "latitude": 41.90959193, "lastCommunicationTime": null, "location": "1009 W. Weed st"}, {"availableDocks": 11, "totalDocks": 15, "city": "Chicago", "altitude": "", "stAddress2": "", "longitude": -87.65478743, "id": 21, "landMark": "157", "statusValue": "In Service", "testStation": false, "stAddress1": "Aberdeen St & Jackson Blvd", "stationName": "Aberdeen St & Jackson Blvd", "postalCode": "", "statusKey": 1, "availableBikes": 3, "latitude": 41.87772613, "lastCommunicationTime": null, "location": "1103 W.Jackson Blvd"}, {"availableDocks": 12, "totalDocks": 15, "city": "", "altitude": "", "stAddress2": "", "longitude": -87.6554864, "id": 22, "landMark": "160", "statusValue": "In Service", "testStation": false, "stAddress1": "May St & Taylor St", "stationName": "May St & Taylor St.", "postalCode": "", "statusKey": 1, "availableBikes": 3, "latitude": 41.8694821, "lastCommunicationTime": null, "location": "1134 W. Taylor St"}, {"availableDocks": 14, "totalDocks": 15, "city": "", "altitude": "", "stAddress2": "", "longitude": -87.63773, "id": 23, "landMark": "172", "statusValue": "In Service", "testStation": false, "stAddress1": "Orleans St & Elm St", "stationName": "Orleans St & Elm St", "postalCode": "", "statusKey": 1, "availableBikes": 1, "latitude": 41.90288, "lastCommunicationTime": null, "location": "350 W. Elm st"}, {"availableDocks": 5, "totalDocks": 15, "city": "", "altitude": "", "stAddress2": "", "longitude": -87.62062, "id": 24, "landMark": "262", "statusValue": "In Service", "testStation": false, "stAddress1": "Fairbanks Ct & Grand Ave", "stationName": "Fairbanks Ct & Grand Ave", "postalCode": "", "statusKey": 1, "availableBikes": 8, "latitude": 41.89186, "lastCommunicationTime": null, "location": "240 E.Grand Ave."}, {"availableDocks": 21, "totalDocks": 23, "city": "", "altitude": "", "stAddress2": "", "longitude": -87.62351, "id": 25, "landMark": "34", "statusValue": "In Service", "testStation": false, "stAddress1": "Michigan Ave & Pearson st", "stationName": "Michigan Ave & Pearson St", "postalCode": "", "statusKey": 1, "availableBikes": 2, "latitude": 41.89766, "lastCommunicationTime": null, "location": "150 E.Pearson st"}, {"availableDocks": 1, "totalDocks": 23, "city": "", "altitude": "", "stAddress2": "", "longitude": -87.6173, "id": 26, "landMark": "51", "statusValue": "In Service", "testStation": false, "stAddress1": "McClurg Ct & Illinois St", "stationName": "McClurg Ct & Illinois St", "postalCode": "", "statusKey": 1, "availableBikes": 18, "latitude": 41.89102, "lastCommunicationTime": null, "location": ""}, {"availableDocks": 16, "totalDocks": 19, "city": "", "altitude": "", "stAddress2": "", "longitude": -87.6435, "id": 27, "landMark": "174", "statusValue": "In Service", "testStation": false, "stAddress1": "Larrabee St & North Ave", "stationName": "Larrabee St & North Ave", "postalCode": "", "statusKey": 1, "availableBikes": 3, "latitude": 41.91021, "lastCommunicationTime": null, "location": "1530 N.Larrabee st"}, {"availableDocks": 10, "totalDocks": 15, "city": "", "altitude": "", "stAddress2": "", "longitude": -87.64332, "id": 28, "landMark": "282", "statusValue": "In Service", "testStation": false, "stAddress1": "Larrabee st & Menomonee st", "stationName": "Larrabee st & Menomonee st", "postalCode": "", "statusKey": 1, "availableBikes": 4, "latitude": 41.91468, "lastCommunicationTime": null, "location": "590 W. Menomonee"}, {"availableDocks": 10, "totalDocks": 15, "city": "", "altitude": "", "stAddress2": "", "longitude": -87.6626, "id": 29, "landMark": "290", "statusValue": "In Service", "testStation": false, "stAddress1": "Noble St & Milwaukee Ave", "stationName": "Noble St & Milwaukee Ave", "postalCode": "", "statusKey": 1, "availableBikes": 4, "latitude": 41.90068, "lastCommunicationTime": null, "location": "1016 N. Noble st"}, {"availableDocks": 8, "totalDocks": 15, "city": "", "altitude": "", "stAddress2": "", "longitude": -87.66780948, "id": 30, "landMark": "248", "statusValue": "In Service", "testStation": false, "stAddress1": "Ashland Ave & Augusta Blvd", "stationName": "Ashland Ave & Augusta Blvd", "postalCode": "", "statusKey": 1, "availableBikes": 7, "latitude": 41.89964579, "lastCommunicationTime": null, "location": "1611 W. Augusta Blvd"}, {"availableDocks": 17, "totalDocks": 23, "city": "", "altitude": "", "stAddress2": "", "longitude": -87.63563839, "id": 31, "landMark": "17", "statusValue": "In Service", "testStation": false, "stAddress1": "Franklin st & Chicago av", "stationName": "Franklin St & Chicago Ave", "postalCode": "", "statusKey": 1, "availableBikes": 5, "latitude": 41.89680204, "lastCommunicationTime": null, "location": "805 N. Fraklin st"}, {"availableDocks": 18, "totalDocks": 19, "city": "", "altitude": "", "stAddress2": "", "longitude": -87.65703, "id": 32, "landMark": "76", "statusValue": "In Service", "testStation": false, "stAddress1": "Racine Ave & Congress Pkwy", "stationName": "Racine Ave & Congress Pkwy", "postalCode": "", "statusKey": 1, "availableBikes": 1, "latitude": 41.87464, "lastCommunicationTime": null, "location": "550 S. Racine"}, {"availableDocks": 24, "totalDocks": 27, "city": "", "altitude": "", "stAddress2": "", "longitude": -87.6280176648, "id": 33, "landMark": "3", "statusValue": "In Service", "testStation": false, "stAddress1": "State st & Van Buren st", "stationName": "State st & Van Buren st", "postalCode": "", "statusKey": 1, "availableBikes": 3, "latitude": 41.8773845947, "lastCommunicationTime": null, "location": "360 S State st"}, {"availableDocks": 6, "totalDocks": 15, "city": "", "altitude": "", "stAddress2": "", "longitude": -87.6344287848, "id": 34, "landMark": "124", "statusValue": "In Service", "testStation": false, "stAddress1": "Cannon Dr & Fullerton Ave", "stationName": "Cannon Dr & Fullerton Ave", "postalCode": "", "statusKey": 1, "availableBikes": 8, "latitude": 41.9267559875, "lastCommunicationTime": null, "location": "2432 N. Cannon Dr."}, {"availableDocks": 16, "totalDocks": 23, "city": "", "altitude": "", "stAddress2": "", "longitude": -87.6353211408, "id": 36, "landMark": "19", "statusValue": "In Service", "testStation": false, "stAddress1": "Franklin st & Jackson Blvd", "stationName": "Franklin st & Jackson Blvd", "postalCode": "", "statusKey": 1, "availableBikes": 7, "latitude": 41.8777079559, "lastCommunicationTime": null, "location": "340 s. Franklin"}, {"availableDocks": 19, "totalDocks": 19, "city": "", "altitude": "", "stAddress2": "", "longitude": -87.6297910363, "id": 37, "landMark": "20", "statusValue": "In Service", "testStation": false, "stAddress1": "Dearborn St & Adams St", "stationName": "Dearborn St & Adams St", "postalCode": "", "statusKey": 1, "availableBikes": 0, "latitude": 41.8793563587, "lastCommunicationTime": null, "location": "59 W. Adams St "}, {"availableDocks": 11, "totalDocks": 15, "city": "", "altitude": "", "stAddress2": "", "longitude": -87.6253370902, "id": 42, "landMark": "170", "statusValue": "In Service", "testStation": false, "stAddress1": "Wabash Ave & Cermak Rd", "stationName": "Wabash Ave & Cermak Rd", "postalCode": "", "statusKey": 1, "availableBikes": 3, "latitude": 41.8532387578, "lastCommunicationTime": null, "location": "2119 S. Wabash Ave."}, {"availableDocks": 8, "totalDocks": 19, "city": "", "altitude": "", "stAddress2": "", "longitude": -87.6246491409, "id": 43, "landMark": "1", "statusValue": "In Service", "testStation": false, "stAddress1": "Michigan ave & Washington st", "stationName": "Michigan ave & Washington st", "postalCode": "", "statusKey": 1, "availableBikes": 9, "latitude": 41.8838927658, "lastCommunicationTime": null, "location": "120 N Michigan"}, {"availableDocks": 26, "totalDocks": 27, "city": "", "altitude": "", "stAddress2": "", "longitude": -87.6277335692, "id": 44, "landMark": "2", "statusValue": "In Service", "testStation": false, "stAddress1": "State St & Randolph St", "stationName": "State St & Randolph St", "postalCode": "", "statusKey": 1, "availableBikes": 1, "latitude": 41.8847302006, "lastCommunicationTime": null, "location": ""}, {"availableDocks": 14, "totalDocks": 19, "city": "", "altitude": "", "stAddress2": "", "longitude": -87.6244333636, "id": 45, "landMark": "40", "statusValue": "In Service", "testStation": false, "stAddress1": "Michigan ave & Congress pkwy", "stationName": "Michigan ave & Congress pkwy", "postalCode": "", "statusKey": 1, "availableBikes": 4, "latitude": 41.876065599, "lastCommunicationTime": null, "location": "420 w. Michigan"}, {"availableDocks": 14, "totalDocks": 19, "city": "", "altitude": "", "stAddress2": "", "longitude": -87.63443007, "id": 46, "landMark": "46", "statusValue": "In Service", "testStation": false, "stAddress1": "Wells St & Walton St", "stationName": "Wells St & Walton St", "postalCode": "", "statusKey": 1, "availableBikes": 4, "latitude": 41.89993001, "lastCommunicationTime": null, "location": "932 N. Wells St."}, {"availableDocks": 3, "totalDocks": 15, "city": "", "altitude": "", "stAddress2": "", "longitude": -87.6277, "id": 47, "landMark": "50", "statusValue": "In Service", "testStation": false, "stAddress1": "State St & Kinzie St", "stationName": "State St & Kinzie St", "postalCode": "", "statusKey": 1, "availableBikes": 9, "latitude": 41.88918, "lastCommunicationTime": null, "location": "5 E. Kinzie St."}, {"availableDocks": 15, "totalDocks": 19, "city": "", "altitude": "", "stAddress2": "", "longitude": -87.643119, "id": 48, "landMark": "12", "statusValue": "In Service", "testStation": false, "stAddress1": "Larrabee St & Kingsbury St", "stationName": "Larrabee St & Kingsbury St", "postalCode": "", "statusKey": 1, "availableBikes": 3, "latitude": 41.8977354419, "lastCommunicationTime": null, "location": "840 N. Larrabee St."}, {"availableDocks": 14, "totalDocks": 19, "city": "", "altitude": "", "stAddress2": "", "longitude": -87.6295209193, "id": 49, "landMark": "49", "statusValue": "In Service", "testStation": false, "stAddress1": "Dearborn St & Monroe St", "stationName": "Dearborn St & Monroe St", "postalCode": "", "statusKey": 1, "availableBikes": 5, "latitude": 41.881319815, "lastCommunicationTime": null, "location": "80 S. Dearborn St."}, {"availableDocks": 20, "totalDocks": 27, "city": "", "altitude": "", "stAddress2": "", "longitude": -87.6305845355, "id": 50, "landMark": "9", "statusValue": "In Service", "testStation": false, "stAddress1": "Clark St & Congress Pkwy", "stationName": "Clark St & Congress Pkwy", "postalCode": "", "statusKey": 1, "availableBikes": 5, "latitude": 41.8759326655, "lastCommunicationTime": null, "location": ""}, {"availableDocks": 26, "totalDocks": 27, "city": "", "altitude": "", "stAddress2": "", "longitude": -87.63188991, "id": 51, "landMark": "5", "statusValue": "In Service", "testStation": false, "stAddress1": "Clark St & Randolph st", "stationName": "Clark St & Randolph st", "postalCode": "", "statusKey": 1, "availableBikes": 1, "latitude": 41.884576228, "lastCommunicationTime": null, "location": "120 W. Randolph St."}, {"availableDocks": 15, "totalDocks": 23, "city": "", "altitude": "", "stAddress2": "", "longitude": -87.6242893413, "id": 52, "landMark": "43", "statusValue": "In Service", "testStation": false, "stAddress1": "Michigan Ave & Lake St", "stationName": "Michigan Ave & Lake St", "postalCode": "", "statusKey": 1, "availableBikes": 5, "latitude": 41.8860581151, "lastCommunicationTime": null, "location": "203 N. Michigan Ave."}, {"availableDocks": 15, "totalDocks": 19, "city": "", "altitude": "", "stAddress2": "", "longitude": -87.6338828668, "id": 53, "landMark": "64", "statusValue": "In Service", "testStation": false, "stAddress1": "Wells St & Huron St", "stationName": "Wells St & Huron St", "postalCode": "", "statusKey": 1, "availableBikes": 2, "latitude": 41.8947375479, "lastCommunicationTime": null, "location": "171 W. Huron"}, {"availableDocks": 13, "totalDocks": 19, "city": "", "altitude": "", "stAddress2": "", "longitude": -87.6540612729, "id": 54, "landMark": "44", "statusValue": "In Service", "testStation": false, "stAddress1": "Ogden Ave & Chicago Ave", "stationName": "Ogden Ave & Chicago Ave", "postalCode": "", "statusKey": 1, "availableBikes": 6, "latitude": 41.896362458, "lastCommunicationTime": null, "location": "1040 W. Chicago Ave."}, {"availableDocks": 14, "totalDocks": 15, "city": "", "altitude": "", "stAddress2": "", "longitude": -87.646995218, "id": 55, "landMark": "166", "statusValue": "In Service", "testStation": false, "stAddress1": "Halsted St & James M Rochford St", "stationName": "Halsted St & James M Rochford St", "postalCode": "", "statusKey": 1, "availableBikes": 1, "latitude": 41.8664547412, "lastCommunicationTime": null, "location": "791 W. James M. Rochford St."}, {"availableDocks": 16, "totalDocks": 19, "city": "", "altitude": "", "stAddress2": "", "longitude": -87.6444478533, "id": 56, "landMark": "39", "statusValue": "In Service", "testStation": false, "stAddress1": "Desplaines St & Kinzie St", "stationName": "Desplaines St & Kinzie St", "postalCode": "", "statusKey": 1, "availableBikes": 3, "latitude": 41.888716036, "lastCommunicationTime": null, "location": "368 N. Desplaines St."}, {"availableDocks": 7, "totalDocks": 15, "city": "", "altitude": "", "stAddress2": "", "longitude": -87.6410879593, "id": 57, "landMark": "327", "statusValue": "In Service", "testStation": false, "stAddress1": "Clinton St & Roosevelt Rd", "stationName": "Clinton St & Roosevelt Rd", "postalCode": "", "statusKey": 1, "availableBikes": 7, "latitude": 41.8671177825, "lastCommunicationTime": null, "location": "559 W. Roosevelt Rd."}, {"availableDocks": 7, "totalDocks": 15, "city": "", "altitude": "", "stAddress2": "", "longitude": -87.668919, "id": 58, "landMark": "25", "statusValue": "In Service", "testStation": false, "stAddress1": "Ashland Ave & Armitage Ave", "stationName": "Ashland Ave & Armitage Ave", "postalCode": "", "statusKey": 1, "availableBikes": 4, "latitude": 41.9178588677, "lastCommunicationTime": null, "location": "1639 W. Armitage Ave."}, {"availableDocks": 14, "totalDocks": 19, "city": "", "altitude": "", "stAddress2": "", "longitude": -87.6259550069, "id": 59, "landMark": "31", "statusValue": "In Service", "testStation": false, "stAddress1": "Wabash Ave & Roosevelt Rd", "stationName": "Wabash Ave & Roosevelt Rd", "postalCode": "", "statusKey": 1, "availableBikes": 3, "latitude": 41.8671729952, "lastCommunicationTime": null, "location": "1210 S. Wabash Ave."}, {"availableDocks": 18, "totalDocks": 19, "city": "", "altitude": "", "stAddress2": "", "longitude": -87.6494219288, "id": 60, "landMark": "58", "statusValue": "In Service", "testStation": false, "stAddress1": "Dayton St & North Ave", "stationName": "Dayton St & North Ave", "postalCode": "", "statusKey": 1, "availableBikes": 0, "latitude": 41.9105780349, "lastCommunicationTime": null, "location": "1575 N. Dayton St."}, {"availableDocks": 14, "totalDocks": 15, "city": "", "altitude": "", "stAddress2": "", "longitude": -87.6722553513, "id": 61, "landMark": "221", "statusValue": "In Service", "testStation": false, "stAddress1": "Wood St & Milwaukee Ave", "stationName": "Wood St & Milwaukee Ave", "postalCode": "", "statusKey": 1, "availableBikes": 0, "latitude": 41.9069790885, "lastCommunicationTime": null, "location": "1381 N. Milwaukee Ave."}, {"availableDocks": 11, "totalDocks": 15, "city": "", "altitude": "", "stAddress2": "", "longitude": -87.6188346489, "id": 62, "landMark": "106", "statusValue": "In Service", "testStation": false, "stAddress1": "McCormick Place", "stationName": "McCormick Place", "postalCode": "", "statusKey": 1, "availableBikes": 2, "latitude": 41.8513751729, "lastCommunicationTime": null, "location": "2253 S. Dr. Martin Luther King Jr Dr."}, {"availableDocks": 13, "totalDocks": 18, "city": "", "altitude": "", "stAddress2": "", "longitude": -87.6413823149, "id": 66, "landMark": "21", "statusValue": "In Service", "testStation": false, "stAddress1": "Clinton St & Lake St", "stationName": "Clinton St & Lake St", "postalCode": "", "statusKey": 1, "availableBikes": 5, "latitude": 41.8858327415, "lastCommunicationTime": null, "location": "202 N. Clinton St."}, {"availableDocks": 8, "totalDocks": 15, "city": "", "altitude": "", "stAddress2": "", "longitude": -87.6537080423, "id": 67, "landMark": "60", "statusValue": "In Service", "testStation": false, "stAddress1": "Sheffield Ave & Fullerton Ave", "stationName": "Sheffield Ave & Fullerton Ave", "postalCode": "", "statusKey": 1, "availableBikes": 7, "latitude": 41.9256018819, "lastCommunicationTime": null, "location": "2410 N. Sheffield Ave."}, {"availableDocks": 19, "totalDocks": 23, "city": "", "altitude": "", "stAddress2": "", "longitude": -87.6405507168, "id": 68, "landMark": "37", "statusValue": "In Service", "testStation": false, "stAddress1": "Clinton St & Tilden St", "stationName": "Clinton St & Tilden St", "postalCode": "", "statusKey": 1, "availableBikes": 4, "latitude": 41.8758626822, "lastCommunicationTime": null, "location": "520 W. Tilden"}, {"availableDocks": 8, "totalDocks": 19, "city": "", "altitude": "", "stAddress2": "", "longitude": -87.6776919292, "id": 69, "landMark": "65", "statusValue": "In Service", "testStation": false, "stAddress1": "Damen Ave & Pierce Ave", "stationName": "Damen Ave & Pierce Ave", "postalCode": "", "statusKey": 1, "availableBikes": 9, "latitude": 41.9093960065, "lastCommunicationTime": null, "location": "2002 W. Pierce Ave."}, {"availableDocks": 11, "totalDocks": 15, "city": "", "altitude": "", "stAddress2": "", "longitude": -87.6523048564, "id": 71, "landMark": "72", "statusValue": "In Service", "testStation": false, "stAddress1": "Morgan St & Lake St", "stationName": "Morgan St & Lake St", "postalCode": "", "statusKey": 1, "availableBikes": 3, "latitude": 41.8854833079, "lastCommunicationTime": null, "location": "1003 W. Lake St."}, {"availableDocks": 9, "totalDocks": 15, "city": "", "altitude": "", "stAddress2": "", "longitude": -87.6277291853, "id": 72, "landMark": "148", "statusValue": "In Service", "testStation": false, "stAddress1": "State St & 16th St", "stationName": "State St & 16th St", "postalCode": "", "statusKey": 1, "availableBikes": 6, "latitude": 41.8601213774, "lastCommunicationTime": null, "location": "1 W. 16th St."}, {"availableDocks": 14, "totalDocks": 19, "city": "", "altitude": "", "stAddress2": "", "longitude": -87.6425032317, "id": 73, "landMark": "38", "statusValue": "In Service", "testStation": false, "stAddress1": "Jefferson St & Monroe St", "stationName": "Jefferson St & Monroe St", "postalCode": "", "statusKey": 1, "availableBikes": 5, "latitude": 41.8789084513, "lastCommunicationTime": null, "location": "207 S. Jefferson St."}, {"availableDocks": 17, "totalDocks": 23, "city": "", "altitude": "", "stAddress2": "", "longitude": -87.64185116, "id": 74, "landMark": "265", "statusValue": "In Service", "testStation": false, "stAddress1": "Kingsbury St & Erie St", "stationName": "Kingsbury St & Erie St", "postalCode": "", "statusKey": 1, "availableBikes": 6, "latitude": 41.89384315, "lastCommunicationTime": null, "location": "511 W Erie"}, {"availableDocks": 30, "totalDocks": 35, "city": "", "altitude": "", "stAddress2": "", "longitude": -87.63997112, "id": 75, "landMark": "138", "statusValue": "In Service", "testStation": false, "stAddress1": "Canal St & Jackson Blvd", "stationName": "Canal St & Jackson Blvd", "postalCode": "", "statusKey": 1, "availableBikes": 4, "latitude": 41.87811421, "lastCommunicationTime": null, "location": "510 W. Jackson Blvd."}, {"availableDocks": 3, "totalDocks": 11, "city": "", "altitude": "", "stAddress2": "", "longitude": -87.61697, "id": 76, "landMark": "300", "statusValue": "In Service", "testStation": false, "stAddress1": "Lake Shore Dr & Monroe St", "stationName": "Lake Shore Dr & Monroe St", "postalCode": "", "statusKey": 1, "availableBikes": 5, "latitude": 41.88105, "lastCommunicationTime": null, "location": "402 E. Monroe St."}, {"availableDocks": 19, "totalDocks": 23, "city": "", "altitude": "", "stAddress2": "", "longitude": -87.64127743, "id": 77, "landMark": "301", "statusValue": "In Service", "testStation": false, "stAddress1": "Clinton St & Madison St", "stationName": "Clinton St & Madison St", "postalCode": "", "statusKey": 1, "availableBikes": 4, "latitude": 41.8815824, "lastCommunicationTime": null, "location": "8 S. Clinton St."}, {"availableDocks": 16, "totalDocks": 19, "city": "", "altitude": "", "stAddress2": "", "longitude": -87.65473822, "id": 80, "landMark": "156", "statusValue": "In Service", "testStation": false, "stAddress1": "Aberdeen St & Madison St", "stationName": "Aberdeen St & Madison St", "postalCode": "", "statusKey": 1, "availableBikes": 3, "latitude": 41.88158061, "lastCommunicationTime": null, "location": "1059 W. Madison St."}, {"availableDocks": 20, "totalDocks": 23, "city": "", "altitude": "", "stAddress2": "", "longitude": -87.62971344, "id": 81, "landMark": "23", "statusValue": "In Service", "testStation": false, "stAddress1": "Dearborn St & Washington St", "stationName": "Dearborn St & Washington St", "postalCode": "", "statusKey": 1, "availableBikes": 3, "latitude": 41.8833135, "lastCommunicationTime": null, "location": "48 W. Washington St."}, {"availableDocks": 8, "totalDocks": 19, "city": "", "altitude": "", "stAddress2": "", "longitude": -87.6487494, "id": 84, "landMark": "33", "statusValue": "In Service", "testStation": false, "stAddress1": "Green St & Milwaukee Ave", "stationName": "Green St & Milwaukee Ave", "postalCode": "", "statusKey": 1, "availableBikes": 10, "latitude": 41.89188795, "lastCommunicationTime": null, "location": "820 W. Grand Ave."}, {"availableDocks": 14, "totalDocks": 15, "city": "", "altitude": "", "stAddress2": "", "longitude": -87.62377664, "id": 85, "landMark": "42", "statusValue": "In Service", "testStation": false, "stAddress1": "Michigan Ave & Oak St", "stationName": "Michigan Ave & Oak St", "postalCode": "", "statusKey": 1, "availableBikes": 1, "latitude": 41.90096039, "lastCommunicationTime": null, "location": "140 E. Oak St."}, {"availableDocks": 11, "totalDocks": 15, "city": "", "altitude": "", "stAddress2": "", "longitude": -87.66098386, "id": 86, "landMark": "289", "statusValue": "In Service", "testStation": false, "stAddress1": "Eckhart Park", "stationName": "Eckhart Park", "postalCode": "", "statusKey": 1, "availableBikes": 3, "latitude": 41.89637337, "lastCommunicationTime": null, "location": "811 N. Noble St."}, {"availableDocks": 16, "totalDocks": 19, "city": "", "altitude": "", "stAddress2": "", "longitude": -87.65840426, "id": 87, "landMark": "189", "statusValue": "In Service", "testStation": false, "stAddress1": "Racine Ave & Fullerton Ave", "stationName": "Racine Ave & Fullerton Ave", "postalCode": "", "statusKey": 1, "availableBikes": 3, "latitude": 41.92556258, "lastCommunicationTime": null, "location": "2411 N. Racine"}, {"availableDocks": 12, "totalDocks": 15, "city": "", "altitude": "", "stAddress2": "", "longitude": -87.655688, "id": 88, "landMark": "155", "statusValue": "In Service", "testStation": false, "stAddress1": "May St & Randolph St", "stationName": "May St & Randolph St", "postalCode": "", "statusKey": 1, "availableBikes": 2, "latitude": 41.88397, "lastCommunicationTime": null, "location": "1213 W. Washington St."}, {"availableDocks": 21, "totalDocks": 27, "city": "", "altitude": "", "stAddress2": "", "longitude": -87.62408432, "id": 90, "landMark": "8", "statusValue": "In Service", "testStation": false, "stAddress1": "Millennium Park", "stationName": "Millennium Park", "postalCode": "", "statusKey": 1, "availableBikes": 6, "latitude": 41.8810317, "lastCommunicationTime": null, "location": "33 S. Michigan Ave."}, {"availableDocks": 23, "totalDocks": 31, "city": "", "altitude": "", "stAddress2": "", "longitude": -87.64117, "id": 91, "landMark": "10", "statusValue": "In Service", "testStation": false, "stAddress1": "Clinton St & Washington Blvd", "stationName": "Clinton St & Washington Blvd", "postalCode": "", "statusKey": 1, "availableBikes": 3, "latitude": 41.88338, "lastCommunicationTime": null, "location": "109 N. Clinton St."}, {"availableDocks": 13, "totalDocks": 19, "city": "", "altitude": "", "stAddress2": "", "longitude": -87.65345571, "id": 92, "landMark": "196", "statusValue": "In Service", "testStation": false, "stAddress1": "Carpenter St & Huron St", "stationName": "Carpenter St & Huron St", "postalCode": "", "statusKey": 1, "availableBikes": 3, "latitude": 41.89445911, "lastCommunicationTime": null, "location": ""}, {"availableDocks": 14, "totalDocks": 15, "city": "", "altitude": "", "stAddress2": "", "longitude": -87.65325, "id": 93, "landMark": "190", "statusValue": "In Service", "testStation": false, "stAddress1": "Sheffield Ave & Willow St", "stationName": "Sheffield Ave & Willow St", "postalCode": "", "statusKey": 1, "availableBikes": 0, "latitude": 41.91316, "lastCommunicationTime": null, "location": "1740 N. Sheffield Ave."}, {"availableDocks": 11, "totalDocks": 19, "city": "", "altitude": "", "stAddress2": "", "longitude": -87.63837588, "id": 94, "landMark": "146", "statusValue": "In Service", "testStation": false, "stAddress1": "Lincoln Ave & Armitage Ave", "stationName": "Lincoln Ave & Armitage Ave", "postalCode": "", "statusKey": 1, "availableBikes": 6, "latitude": 41.91807062, "lastCommunicationTime": null, "location": "1963 N. Lincoln Ave."}, {"availableDocks": 7, "totalDocks": 19, "city": "", "altitude": "", "stAddress2": "\n\n\t\n", "longitude": -87.6127956, "id": 97, "landMark": "29", "statusValue": "In Service", "testStation": false, "stAddress1": "Museum Campus", "stationName": "Museum Campus", "postalCode": "", "statusKey": 1, "availableBikes": 10, "latitude": 41.86623759, "lastCommunicationTime": null, "location": "1300 S. Lake Shore Drive"}]}